City_ID,City,Lat,Lng,Max Temp,Humidity,Cloudiness,Wind Speed,Country,Date
0,edinburgh of the seven seas,-37.0676,-12.3116,17.19,87,100,4.69,SH,1712844374
1,atafu village,-8.5421,-172.5159,29.13,75,84,2.6,TK,1712844374
2,puerto natales,-51.7236,-72.4875,5.25,81,20,0.51,CL,1712844374
3,west island,-12.1568,96.8225,27.99,74,40,4.63,CC,1712844375
4,sirib,7.1333,125.4072,26.01,87,100,0.92,PH,1712844375
5,taos,36.4072,-105.5731,4.56,56,0,0.0,US,1712844375
6,longyearbyen,78.2186,15.6401,-12.09,61,0,3.6,SJ,1712844375
7,adamstown,-25.066,-130.1015,20.65,75,90,8.11,PN,1712844375
8,vilhena,-12.7406,-60.1458,25.12,88,20,1.03,BR,1712844375
9,blackmans bay,-43.0167,147.3167,9.18,84,100,0.45,AU,1712844202
10,nemuro,43.3236,145.575,4.25,95,100,7.03,JP,1712844376
11,port-aux-francais,-49.35,70.2167,6.1,97,98,8.56,TF,1712844376
12,chibougamau,49.9168,-74.3659,7.79,66,0,4.12,CA,1712844149
13,trinity beach,-16.7888,145.6968,21.94,83,10,4.12,AU,1712844376
14,bredasdorp,-34.5322,20.0403,18.06,52,0,7.39,ZA,1712844281
15,bethel,41.3712,-73.414,12.33,89,100,3.6,US,1712844376
16,ust-nera,64.5667,143.2,-11.84,92,79,3.24,RU,1712844377
17,ushuaia,-54.8,-68.3,7.81,61,0,6.69,AR,1712844319
18,arraial do cabo,-22.9661,-42.0278,27.98,74,40,4.12,BR,1712844225
19,stanley,54.868,-1.6985,15.01,75,40,4.12,GB,1712844377
20,west fargo,46.875,-96.9004,8.0,68,20,8.75,US,1712844377
21,ilulissat,69.2167,-51.1,-4.99,63,100,2.06,GL,1712844377
22,alofi,-19.0595,-169.9187,21.94,94,20,0.51,NU,1712844251
23,luganville,-15.5333,167.1667,25.12,85,12,1.14,VU,1712844378
24,tiksi,71.6872,128.8694,-26.33,93,37,8.78,RU,1712844378
25,port elizabeth,-33.918,25.5701,20.05,68,20,8.75,ZA,1712844202
26,hanzhong,33.0728,107.0303,17.52,72,6,1.19,CN,1712844378
27,cidreira,-30.1811,-50.2056,20.52,89,100,8.23,BR,1712844378
28,yellowknife,62.456,-114.3525,-3.1,92,40,6.17,CA,1712844378
29,lompoc,34.6391,-120.4579,12.55,97,0,2.06,US,1712844378
30,dunedin,-45.8742,170.5036,8.78,99,100,3.58,NZ,1712844379
31,cabo san lucas,22.8909,-109.9124,19.73,63,20,2.06,MX,1712844299
32,williston,48.147,-103.618,2.8,67,1,0.89,US,1712844379
33,howard springs,-12.497,131.047,26.95,85,9,2.47,AU,1712844379
34,malango,-2.9627,119.9001,20.58,100,100,0.26,ID,1712844379
35,crane,31.3974,-102.3501,15.78,35,0,2.15,US,1712844379
36,margaret river,-33.95,115.0667,15.35,62,0,5.43,AU,1712844091
37,iskateley,67.6803,53.1512,-1.66,96,100,12.07,RU,1712844380
38,ketchikan,55.3422,-131.6461,3.99,93,100,2.06,US,1712844380
39,sur,22.5667,59.5289,31.9,44,65,3.17,OM,1712844380
40,zabaykal'sk,49.6333,117.3167,10.98,67,100,2.13,RU,1712844380
41,carnarvon,-24.8667,113.6333,22.71,60,100,11.99,AU,1712844380
42,sambava,-14.2667,50.1667,28.37,78,59,2.61,MG,1712844381
43,valentin gomez farias,28.2167,-106.5833,12.76,22,1,0.94,MX,1712844381
44,iqaluit,63.7506,-68.5145,-3.15,79,100,2.57,CA,1712844381
45,bilibino,68.0546,166.4372,-23.09,100,92,0.78,RU,1712844381
46,thompson,55.7435,-97.8558,1.09,80,75,5.14,CA,1712844381
47,vega de alatorre,20.0333,-96.6333,24.25,43,94,0.59,MX,1712844381
48,kailua-kona,19.6406,-155.9956,23.98,87,0,1.54,US,1712844255
49,devils lake,48.1128,-98.8651,3.99,79,0,8.23,US,1712844370
50,kone,-21.0595,164.8658,22.69,93,97,0.78,NC,1712844382
51,wailua homesteads,22.0669,-159.378,23.24,89,40,2.06,US,1712844382
52,waitangi,-43.9535,-176.5597,16.01,94,17,4.47,NZ,1712844382
53,hamilton,39.1834,-84.5333,16.36,96,100,3.6,US,1712844355
54,tralee,52.2704,-9.7026,14.14,88,40,6.17,IE,1712844186
55,kendari,-3.945,122.4989,24.76,95,100,0.75,ID,1712844382
56,villa gesell,-37.2639,-56.973,13.92,57,100,5.09,AR,1712844306
57,petropavlovsk-kamchatsky,53.0452,158.6483,-1.67,71,0,11.62,RU,1712844383
58,grytviken,-54.2811,-36.5092,2.07,95,75,5.33,GS,1712844383
59,gunjur,13.2019,-16.7339,35.04,36,8,4.12,GM,1712844383
60,ribeira grande,38.5167,-28.7,16.22,100,75,7.2,PT,1712844383
61,kavieng,-2.5744,150.7967,26.53,84,100,2.03,PG,1712844383
62,touros,-5.1989,-35.4608,30.29,67,57,3.1,BR,1712844383
63,enewetak,11.3474,162.3373,27.04,78,87,10.05,MH,1712844384
64,polyarnyy,69.1989,33.4478,1.47,99,100,8.02,RU,1712844322
65,albany,42.6001,-73.9662,11.28,83,100,0.89,US,1712844378
66,haiku-pauwela,20.9219,-156.3051,21.25,81,40,1.54,US,1712844384
67,zouerate,22.7187,-12.4521,38.58,5,0,3.61,MR,1712844384
68,ngou,5.1959,10.3844,25.83,58,86,1.75,CM,1712844384
69,lodwar,3.1191,35.5973,35.62,32,8,4.52,KE,1712844385
70,whistler,50.1164,-122.9695,3.09,93,100,0.0,CA,1712844228
71,olonkinbyen,70.9221,-8.7187,-8.46,68,100,3.97,SJ,1712844385
72,east london,-33.0153,27.9116,20.52,49,0,9.26,ZA,1712844369
73,praia da vitoria,38.7333,-27.0667,19.14,94,75,4.97,PT,1712844385
74,usinsk,65.9939,57.5281,-0.52,98,100,13.86,RU,1712844386
75,newman,37.3138,-121.0208,12.81,90,76,1.79,US,1712844386
76,armacao de buzios,-22.7469,-41.8817,30.03,81,18,3.63,BR,1712844295
77,mutoko,-17.397,32.2268,17.19,93,100,2.6,ZW,1712844386
78,mongo,12.1844,18.693,41.72,6,22,3.47,TD,1712844386
79,port douglas,-16.4833,145.4667,23.14,75,11,3.47,AU,1712844386
80,san antonio de pale,-1.4014,5.6325,26.37,81,100,8.06,GQ,1712844120
81,krasnobrodskiy,54.1581,86.4486,0.53,94,100,4.12,RU,1712844387
82,khamis mushait,18.3064,42.7292,23.34,53,20,6.17,SA,1712844387
83,cabedelo,-6.9811,-34.8339,31.37,74,100,3.07,BR,1712844387
84,jamestown,42.097,-79.2353,16.12,97,100,3.6,US,1712844132
85,buulobarde,3.8538,45.5674,37.53,29,98,3.85,SO,1712844387
86,nogliki,51.8333,143.1667,-0.37,86,30,2.24,RU,1712844388
87,constantia,44.1833,28.65,24.38,62,0,2.65,RO,1712844247
88,taltal,-25.4,-70.4833,20.22,70,39,2.78,CL,1712844388
89,tweed heads,-28.1817,153.547,20.02,79,30,3.09,AU,1712844388
90,kayangel,8.0823,134.7173,28.01,76,13,6.07,PW,1712844388
91,new norfolk,-42.7826,147.0587,9.84,84,100,1.16,AU,1712844388
92,villanueva del trabuco,37.0479,-4.3221,17.0,41,35,4.03,ES,1712844389
93,labytnangi,66.6572,66.4183,-9.79,86,100,6.31,RU,1712844389
94,berezovyy,51.6667,135.7,2.58,65,0,2.29,RU,1712844389
95,jambi city,-1.6,103.6167,24.48,93,100,1.28,ID,1712844389
96,ancud,-41.8697,-73.8203,10.72,70,0,3.3,CL,1712844279
97,sitka,57.0531,-135.33,0.94,80,20,1.54,US,1712844389
98,ben gardane,33.1378,11.2197,17.05,61,84,6.59,TN,1712844389
99,port mathurin,-19.6833,63.4167,27.06,76,25,3.14,MU,1712844390
100,slave lake,55.2834,-114.769,-2.01,64,0,2.57,CA,1712844390
101,papatowai,-46.5619,169.4708,7.54,91,100,3.75,NZ,1712844390
102,chonchi,-42.6128,-73.8092,12.84,64,0,0.78,CL,1712844390
103,geraldton,-28.7667,114.6,23.23,43,100,0.51,AU,1712844390
104,talnakh,69.4865,88.3972,-26.42,98,79,0.69,RU,1712844391
105,palikir - national government center,6.9248,158.1611,26.41,89,100,2.06,FM,1712844391
106,qinhuangdao,39.9317,119.5883,11.58,80,1,1.94,CN,1712844391
107,cova figueira,14.8905,-24.2934,18.24,68,2,4.6,CV,1712844391
108,rongelap,11.1635,166.8941,26.75,78,100,9.43,MH,1712844391
109,college,64.8569,-147.8028,-1.0,73,75,3.09,US,1712844391
110,kavaratti,10.5669,72.642,29.5,69,1,3.61,IN,1712844391
111,weno,7.4515,151.8468,26.97,89,100,3.09,FM,1712844391
112,lubango,-14.9172,13.4925,26.92,47,75,3.09,AO,1712844392
113,uturoa,-16.7333,-151.4333,28.55,79,44,8.02,PF,1712844392
114,mlalo,-4.9333,38.9333,30.7,61,61,4.55,TZ,1712844392
115,udachny,66.4167,112.4,-28.08,100,96,2.33,RU,1712844196
116,ta`u,-14.2336,-169.5144,28.35,82,19,4.46,AS,1712844392
117,dudinka,69.4058,86.1778,-25.18,98,39,2.24,RU,1712844392
118,talcahuano,-36.7167,-73.1167,11.82,82,75,3.09,CL,1712844316
119,sausset-les-pins,43.3314,5.1043,23.56,45,0,4.12,FR,1712844393
120,utrik,11.2278,169.8474,26.49,75,96,9.71,MH,1712844393
121,meadow lakes,61.6247,-149.6011,-0.08,91,75,0.45,US,1712844393
122,mount pearl,47.5166,-52.7813,4.14,79,75,6.69,CA,1712844357
123,yilan,24.757,121.753,25.03,95,12,0.79,TW,1712844138
124,khvansar,33.2205,50.315,10.19,36,4,7.38,IR,1712844293
125,saint-philippe,-21.3585,55.7679,28.77,87,78,1.7,RE,1712844394
126,codrington,-38.2667,141.9667,14.26,56,100,2.54,AU,1712844394
127,mammoth lakes,37.6485,-118.9721,1.3,62,0,2.57,US,1712844229
128,north bay,46.3168,-79.4663,10.01,57,100,4.63,CA,1712844259
129,port alfred,-33.5906,26.891,18.99,69,91,2.68,ZA,1712844394
130,victorica,-36.2151,-65.4359,10.72,56,100,5.43,AR,1712844395
131,st. john's,47.5649,-52.7093,4.6,80,75,6.69,CA,1712844302
132,melfi,40.9965,15.6514,18.61,69,100,4.86,IT,1712844395
133,paciran,-6.8767,112.3761,26.53,86,100,2.14,ID,1712844395
134,remire-montjoly,4.9167,-52.2667,31.02,74,40,7.2,GF,1712844282
135,puerto ayora,-0.7393,-90.3518,27.98,92,28,1.69,EC,1712844395
136,buriti dos lopes,-3.175,-41.8669,30.86,69,83,1.4,BR,1712844156
137,abu zabad,12.35,29.25,38.03,6,4,5.51,SD,1712844357
138,tamanrasset,22.785,5.5228,33.95,7,0,5.14,DZ,1712844396
139,fada,9.5667,8.3,38.76,6,17,4.09,NG,1712844396
140,tsiombe,-25.3,45.4833,24.58,68,99,4.98,MG,1712844306
141,okhotsk,59.3833,143.3,-6.09,95,38,0.88,RU,1712844396
142,panacan,9.2463,118.4082,26.71,85,100,3.44,PH,1712844397
143,hermanus,-34.4187,19.2345,20.45,52,2,9.85,ZA,1712844397
144,lebu,-37.6167,-73.65,13.8,47,0,0.16,CL,1712844120
145,portao,-29.7017,-51.2419,20.89,94,100,1.34,BR,1712844397
146,cankaya,39.9179,32.8627,20.34,44,73,3.58,TR,1712844338
147,hawaiian paradise park,19.5933,-154.9731,21.13,98,100,2.57,US,1712844397
148,pisco,-13.7,-76.2167,23.03,78,20,0.0,PE,1712844160
149,vilyuysk,63.7553,121.6247,-13.33,88,100,4.02,RU,1712844398
150,bedford,52.1346,-0.4663,19.52,78,40,7.2,GB,1712844175
151,kurchatov,51.6601,35.6521,25.23,43,100,3.64,RU,1712844297
152,zhangye,38.9342,100.4517,17.14,23,100,1.8,CN,1712844276
153,saint-pierre,-21.3393,55.4781,28.82,74,75,4.12,RE,1712844398
154,avarua,-21.2078,-159.775,27.03,89,75,7.2,CK,1712844253
155,buala,-8.145,159.5921,26.98,84,99,1.88,SB,1712844399
156,leulumoega,-13.823,-171.9613,24.94,94,20,1.54,WS,1712844399
157,westport,41.1415,-73.3579,12.45,88,100,5.14,US,1712844146
158,neiafu,-18.65,-173.9833,24.38,94,20,0.0,TO,1712844399
159,sisimiut,66.9395,-53.6735,-3.93,69,99,0.31,GL,1712844399
160,ringkobing,56.0901,8.244,13.34,87,75,5.14,DK,1712844400
161,pekanbaru,0.5333,101.45,25.18,100,40,0.0,ID,1712844134
162,novobelokatay,55.7062,58.9549,9.37,64,62,3.75,RU,1712844400
163,hamlet,34.8849,-79.6942,20.37,88,100,8.23,US,1712844400
164,san pedro pochutla,15.7333,-96.4667,25.84,62,7,1.08,MX,1712844400
165,rohru,31.2167,77.75,13.82,50,90,1.42,IN,1712844400
166,barra de santo antonio,-9.4047,-35.5072,30.6,69,100,3.66,BR,1712844117
167,seferihisar,38.1969,26.839,25.57,47,0,4.25,TR,1712844401
168,buckie,57.6757,-2.9624,16.88,48,100,3.6,GB,1712844401
169,invercargill,-46.4,168.35,7.79,87,100,1.79,NZ,1712844401
170,darwin,-12.4611,130.8418,26.99,66,0,3.6,AU,1712844297
171,bardai,11.65,7.2333,39.79,5,51,6.48,NG,1712844401
172,mamuju,-2.6748,118.8885,25.35,92,100,3.24,ID,1712844401
173,colonia,50.9333,6.95,16.36,70,100,2.57,DE,1712844336
174,abadeh,31.1608,52.6506,16.6,26,0,12.07,IR,1712844402
175,liwale,-9.7667,37.9333,25.42,92,100,1.99,TZ,1712844402
176,igarka,67.4667,86.5833,-24.43,97,27,2.68,RU,1712844402
177,silver city,32.7701,-108.2803,12.4,33,0,3.09,US,1712844402
178,lihue,21.9789,-159.3672,23.58,86,40,2.06,US,1712844402
179,gulf shores,30.246,-87.7008,20.03,69,75,9.26,US,1712844403
180,nabire,-3.3667,135.4833,24.53,92,99,0.74,ID,1712844403
181,castillos,-34.1667,-53.8333,17.06,56,92,3.66,UY,1712844403
182,isafjordur,66.0755,-23.124,3.02,70,75,6.17,IS,1712844403
183,ghadamis,30.1337,9.5007,28.78,15,22,5.27,LY,1712844403
184,puerto ayacucho,5.6639,-67.6236,35.13,37,100,1.91,VE,1712844273
185,ola,59.5833,151.2833,-7.7,88,18,1.78,RU,1712844404
186,kayenta,36.7278,-110.2546,9.51,34,1,0.75,US,1712844404
187,puerto baquerizo moreno,-0.9,-89.6,27.55,83,40,2.57,EC,1712844404
188,greymouth,-42.4667,171.2,16.64,93,99,3.69,NZ,1712844404
189,tura,25.5198,90.2201,25.95,32,100,1.32,IN,1712844404
190,vasylivka,47.4369,35.2742,20.88,38,0,2.11,UA,1712844405
191,nadym,65.5333,72.5167,-13.91,73,96,7.06,RU,1712844405
192,tolanaro,-25.0319,46.9987,24.17,74,100,4.55,MG,1712844405
193,hede,33.7681,120.2517,12.7,88,100,2.61,CN,1712844405
194,pangai,-19.8,-174.35,26.83,76,75,3.86,TO,1712844405
195,salaga,8.5508,-0.5188,38.99,29,82,2.63,GH,1712844405
196,holualoa,19.6228,-155.9522,21.91,89,0,1.54,US,1712844405
197,turabah,21.2141,41.6331,31.12,30,13,9.22,SA,1712844406
198,margate,51.3813,1.3862,14.06,89,100,3.54,GB,1712844253
199,goito,45.2549,10.6721,22.48,57,12,0.45,IT,1712844406
200,boca do acre,-8.7522,-67.3978,28.48,70,100,1.53,BR,1712844144
201,vorgashor,67.5833,63.95,-12.33,82,100,10.39,RU,1712844347
202,jatoi shimali,29.5165,70.8503,33.68,11,70,2.48,PK,1712844406
203,georgetown,5.4112,100.3354,29.97,70,20,1.03,MY,1712844402
204,kozhevnikovo,56.2589,83.9714,-3.75,73,99,3.56,RU,1712844407
205,agat village,13.3886,144.6585,27.52,85,20,4.63,GU,1712844407
206,gusinoozyorsk,51.2833,106.5,6.93,67,100,3.07,RU,1712844407
207,midvagur,62.0511,-7.1939,9.46,87,100,3.6,FO,1712844407
208,peace river,56.2501,-117.286,2.98,51,96,1.99,CA,1712844407
209,black point,-34.6187,137.8972,15.29,71,8,4.96,AU,1712844408
210,lepsy,46.235,78.9456,11.81,73,100,0.91,KZ,1712844408
211,pons,45.5799,-0.5478,17.43,88,100,3.09,FR,1712844408
212,khromtau,50.2503,58.4347,10.44,56,9,2.98,KZ,1712844408
213,cestos city,5.46,-9.5828,29.49,71,100,3.3,LR,1712844409
214,guerrero negro,27.9769,-114.0611,15.65,80,80,2.56,MX,1712844321
215,keflavik,64.0049,-22.5624,5.24,87,100,6.69,IS,1712844409
216,soanierana ivongo,-16.9167,49.5833,28.1,83,90,3.87,MG,1712844409
217,sassandra,4.95,-6.0833,29.61,69,97,4.58,CI,1712844277
218,hilo,19.7297,-155.09,21.45,99,100,2.57,US,1712844272
219,ortigueira,-24.2083,-50.9494,27.04,50,98,2.35,BR,1712844410
220,ciudad tula,23.0,-99.7167,16.58,43,48,1.29,MX,1712844410
221,orapa,-21.2833,25.3667,29.88,18,80,2.66,BW,1712844410
222,beckingen,49.4,6.7,17.41,54,100,1.92,DE,1712844253
223,rabaul,-4.1967,152.1721,26.61,84,100,2.24,PG,1712844410
224,brisas de zicatela,15.8369,-97.0419,27.29,69,0,1.54,MX,1712844411
225,sanchor,24.7553,71.7722,32.91,22,97,5.34,IN,1712844411
226,kingston,17.997,-76.7936,31.2,68,20,4.63,JM,1712844317
227,hammerfest,70.6634,23.6821,2.25,87,75,8.23,NO,1712844411
228,al kharijah,25.4514,30.5464,29.87,16,2,5.7,EG,1712844411
229,chissamba,-12.1667,17.3333,24.52,73,100,1.51,AO,1712844411
230,alpatovo,43.7028,45.2415,18.42,38,45,4.4,RU,1712844412
231,tazovsky,67.4667,78.7,-24.82,99,6,2.93,RU,1712844412
232,barmer,25.75,71.3833,32.34,21,76,3.03,IN,1712844412
233,yuzhno-kurilsk,44.0306,145.8556,4.65,76,100,4.43,RU,1712844412
234,hailin,44.5833,129.4167,9.06,76,5,2.56,CN,1712844412
235,puerto colombia,10.9878,-74.9547,29.05,67,34,5.58,CO,1712844341
236,nambucca,-30.6333,152.9833,18.81,82,6,3.86,AU,1712844413
237,punta arenas,-53.15,-70.9167,8.06,66,40,11.32,CL,1712844282
238,livingstone,-17.8419,25.8543,29.21,38,44,3.4,ZM,1712844413
239,hithadhoo,-0.6,73.0833,29.89,69,56,2.13,MV,1712844413
240,nikolayevsk-on-amure,53.1406,140.73,3.45,86,94,0.89,RU,1712844413
241,cam ranh,11.9214,109.1591,27.98,78,20,4.63,VN,1712844413
242,whitehorse,60.7161,-135.0538,-2.57,73,20,2.57,CA,1712844301
243,pokhara,28.2333,83.9833,21.72,17,96,3.41,NP,1712844182
244,rio grande,-32.035,-52.0986,21.06,60,100,7.01,BR,1712844414
245,la passe,45.5549,-0.8967,17.23,74,93,2.92,FR,1712844414
246,nova sintra,14.8667,-24.7167,22.65,74,6,6.08,CV,1712844414
247,kununurra,-15.7667,128.7333,18.99,82,4,0.0,AU,1712844306
248,aasiaat,68.7098,-52.8699,-6.53,89,100,2.04,GL,1712844414
249,eyl,7.9803,49.8164,29.56,70,0,5.37,SO,1712844415
250,homer,59.6425,-151.5483,1.56,79,40,0.45,US,1712844415
251,coro,11.4045,-69.6734,29.69,61,33,7.17,VE,1712844359
252,la ronge,55.1001,-105.2842,1.14,80,100,2.57,CA,1712844198
253,taulaga,-11.0553,-171.0883,29.28,75,35,2.56,AS,1712844415
254,fortuna foothills,32.6578,-114.4119,16.71,39,0,0.0,US,1712844415
255,kesap,40.9164,38.5144,12.9,93,100,0.95,TR,1712844416
256,luanda,-8.8368,13.2343,31.0,72,75,2.57,AO,1712844354
257,san luis de la loma,17.2706,-100.8939,26.05,67,0,1.45,MX,1712844416
258,lamar,33.6668,-95.5836,14.43,71,0,6.69,US,1712844416
259,catarman,12.4989,124.6377,25.53,91,99,2.44,PH,1712844416
260,al hasakah,36.5024,40.7477,23.14,37,7,3.55,SY,1712844404
261,mar del plata,-38.0023,-57.5575,14.18,59,75,4.12,AR,1712844265
262,carthage,36.8611,10.3316,16.74,63,75,6.17,TN,1712844417
263,harstad,68.799,16.5293,3.97,97,100,12.96,NO,1712844417
264,riyadh,24.6877,46.7219,31.08,36,17,2.46,SA,1712844303
265,hailey,43.5196,-114.3153,0.92,55,0,5.14,US,1712844417
266,saipan,15.1355,145.701,27.39,83,75,6.17,MP,1712844291
267,lincoln city,44.9582,-124.0179,8.25,96,100,1.34,US,1712844123
268,saurimo,-9.6608,20.3916,27.36,65,94,1.13,AO,1712844227
269,quellon,-43.1167,-73.6167,10.29,69,0,2.1,CL,1712844418
270,mina clavero,-31.721,-65.0062,12.77,97,96,1.57,AR,1712844418
271,la sarre,48.8002,-79.1996,9.12,70,100,2.21,CA,1712844418
272,tocopilla,-22.092,-70.1979,23.02,67,100,5.17,CL,1712844418
273,bella vista,36.4295,-94.2316,12.97,59,0,8.75,US,1712844418
274,khanty-mansiysk,61.0042,69.0019,-4.94,46,0,3.0,RU,1712844419
275,igurubi,-4.0,33.7,24.58,71,70,2.98,TZ,1712844277
276,kirakira,-10.4544,161.9205,25.82,88,49,2.44,SB,1712844419
277,el granada,37.5027,-122.4694,13.97,91,100,2.57,US,1712844419
278,lata,40.1629,-8.3327,24.16,46,100,2.37,PT,1712844419
279,trincomalee,8.5711,81.2335,29.62,74,66,6.22,LK,1712844420
280,loralai,30.3705,68.598,23.99,21,100,4.98,PK,1712844420
281,karanlukh,40.1044,45.2897,4.14,91,100,2.52,AM,1712844420
282,mount darwin,-16.7725,31.5838,22.14,78,100,4.67,ZW,1712844420
283,ebon,4.582,168.6964,27.87,80,100,6.62,MH,1712844421
284,qaqortoq,60.7167,-46.0333,-3.96,75,96,0.73,GL,1712844421
285,diamante,-32.0664,-60.6384,15.82,54,7,6.26,AR,1712844421
286,manali,13.1667,80.2667,31.17,76,0,5.57,IN,1712844421
287,sao francisco,-15.9486,-44.8644,31.68,50,32,1.81,BR,1712844157
288,gamba,-2.65,10.0,29.13,76,68,4.98,GA,1712844422
289,yaren,-0.5472,166.916,28.0,83,100,3.27,NR,1712844422
290,xilin hot,43.9667,116.0333,16.58,23,100,4.22,CN,1712844423
291,afaahiti,-17.75,-149.2833,24.93,83,65,8.12,PF,1712844423
292,monywa,22.1167,95.1333,35.61,15,3,2.51,MM,1712844423
293,mandapam,9.2833,79.1167,30.56,77,100,9.73,IN,1712844424
294,katsuura,35.1333,140.3,14.54,75,100,3.92,JP,1712844405
295,nuuk,64.1835,-51.7216,-1.66,80,75,1.03,GL,1712844424
296,ovruch,51.3246,28.8035,14.92,49,100,3.97,UA,1712844296
297,semporna,4.4818,118.6112,26.82,80,92,1.74,MY,1712844424
298,fale old settlement,-9.3852,-171.2468,29.17,75,61,2.3,TK,1712844425
299,zeya,53.75,127.2667,0.27,79,8,1.98,RU,1712844425
300,ixtapa,20.7,-105.2,20.13,100,40,1.54,MX,1712844425
301,fort st. john,56.2499,-120.8529,0.94,69,75,2.57,CA,1712844348
302,brigantine,39.4101,-74.3646,19.55,83,0,3.6,US,1712844425
303,revda,56.801,59.9303,6.99,62,85,3.73,RU,1712844426
304,east ballina,-28.8667,153.5833,15.44,78,61,5.75,AU,1712844426
305,taoyuan city,24.9937,121.297,24.98,92,75,1.54,TW,1712844426
306,okha,53.5739,142.9478,2.36,89,52,1.79,RU,1712844426
307,forde,61.4522,5.8572,9.41,100,100,3.6,NO,1712844426
308,vila franca do campo,37.7167,-25.4333,18.27,99,16,3.95,PT,1712844427
309,mirny,62.5353,113.9611,-21.54,100,49,1.79,RU,1712844427
310,ballina,-28.8667,153.5667,15.43,78,61,5.75,AU,1712844427
311,peniche,39.3558,-9.3811,27.28,56,32,3.56,PT,1712844427
312,waingapu,-9.6567,120.2641,25.98,80,61,3.2,ID,1712844427
313,olonets,60.9847,32.9698,6.7,70,9,8.51,RU,1712844334
314,sinabang,2.4803,96.3801,27.73,80,91,0.57,ID,1712844428
315,borogontsy,62.6683,131.1683,0.66,91,100,3.24,RU,1712844428
316,mount gambier,-37.8333,140.7667,11.72,66,85,1.57,AU,1712844428
317,tevriz,57.509,72.4042,-3.54,83,97,1.27,RU,1712844428
318,kill devil hills,36.0307,-75.676,20.0,87,0,4.63,US,1712844428
319,nova vicosa,-17.8919,-39.3719,29.64,65,11,3.74,BR,1712844428
320,tangalle,6.024,80.7911,28.09,85,57,2.4,LK,1712844429
321,bila tserkva,49.8094,30.1121,19.41,52,56,5.71,UA,1712844430
322,hauterive,46.0901,3.4459,17.42,44,98,3.32,FR,1712844430
323,urcos,-13.6861,-71.6228,11.94,74,77,1.37,PE,1712844431
324,pindushi,62.9152,34.58,5.82,74,31,7.15,RU,1712844431
325,bandarbeyla,9.4942,50.8122,28.81,74,0,3.71,SO,1712844431
326,minas de marcona,-15.2119,-75.1103,20.71,66,7,3.01,PE,1712844431
327,sechura,-5.5569,-80.8222,25.12,65,57,3.21,PE,1712844431
328,gornozavodsk,58.3758,58.3211,5.65,80,100,4.62,RU,1712844431
329,zemio,5.0314,25.1361,38.59,19,100,3.31,CF,1712844431
330,taoudenni,22.6783,-3.9836,39.04,7,0,7.2,ML,1712844432
331,fort bragg,35.139,-79.006,20.11,91,75,4.63,US,1712844432
332,illizi,26.4833,8.4667,31.71,12,0,7.25,DZ,1712844432
333,selfoss,63.9331,-20.9971,2.37,96,100,5.94,IS,1712844432
334,ujae,8.9322,165.7642,27.34,78,94,9.95,MH,1712844432
335,cuatro cienegas de carranza,26.9833,-102.0833,16.96,30,0,1.59,MX,1712844432
336,sinan,34.8262,126.1086,11.49,91,100,4.89,KR,1712844432
337,greenland,43.0362,-70.8328,7.84,89,100,2.06,US,1712844433
338,broome,42.2506,-75.833,14.83,90,100,5.14,US,1712844433
339,khandud,36.9513,72.318,1.37,59,73,1.44,AF,1712844433
340,awjilah,29.1081,21.2869,27.63,15,12,2.17,LY,1712844433
341,puerto quijarro,-17.7833,-57.7667,32.53,53,100,1.71,BO,1712844297
342,znamensk,48.5842,45.7338,25.27,34,6,1.97,RU,1712844434
343,poltavka,54.3663,71.7632,1.57,72,91,2.76,RU,1712844434
344,kodiak,57.79,-152.4072,-1.27,74,100,0.0,US,1712844434
345,angaur state,6.906,134.13,28.27,76,88,5.98,PW,1712844434
346,anadyr,64.75,177.4833,-12.72,85,99,10.0,RU,1712844434
347,titao,13.7667,-2.0667,39.01,18,100,3.19,BF,1712844434
348,solok,-0.7918,100.6593,26.53,85,100,0.8,ID,1712844434
349,alice springs,-23.7,133.8833,15.12,42,3,0.0,AU,1712844406
350,daru,-9.0763,143.2092,26.89,83,87,6.98,PG,1712844435
351,salinas,36.6777,-121.6555,14.84,89,0,0.0,US,1712844158
352,ponta delgada,37.7333,-25.6667,18.44,77,20,4.63,PT,1712844435
353,inirida,3.8653,-67.9239,31.75,59,64,1.49,CO,1712844435
354,prince george,53.9166,-122.753,2.01,88,100,1.79,CA,1712844435
355,ar ruseris,11.8659,34.3869,40.01,8,96,4.16,SD,1712844435
356,olsztynek,53.5837,20.2847,14.8,45,100,5.3,PL,1712844436
357,quesnel,52.9999,-122.5029,-1.72,80,0,0.0,CA,1712844311
358,cascais,38.6979,-9.4215,27.53,56,0,2.68,PT,1712844436
359,minot,48.2325,-101.2963,4.12,65,0,7.72,US,1712844436
360,kostomuksha,64.571,30.5767,3.91,97,36,5.81,RU,1712844436
361,sampit,-2.5333,112.95,25.34,98,96,1.51,ID,1712844437
362,sandnessjoen,66.0217,12.6316,6.29,61,75,1.03,NO,1712844437
363,port victoria,0.0939,33.9756,24.91,69,11,5.36,KE,1712844437
364,mejit,10.2753,170.8646,26.63,77,100,9.68,MH,1712844437
365,porto novo,6.4965,2.6036,31.37,63,100,3.73,BJ,1712844437
366,waiuku,-37.25,174.75,20.81,95,100,6.7,NZ,1712844333
367,vernon,50.2581,-119.2691,6.83,66,100,4.12,CA,1712844381
368,chui,-33.6971,-53.4616,18.28,56,80,4.47,UY,1712844438
369,darab,28.7519,54.5444,22.8,39,90,3.68,IR,1712844291
370,hadibu,12.65,54.0333,29.51,70,2,1.71,YE,1712844438
371,malanje,-9.5402,16.341,26.39,73,93,2.7,AO,1712844438
372,puerto deseado,-47.7503,-65.8938,9.85,49,0,1.12,AR,1712844438
373,anatoli,39.6389,20.8653,24.86,22,100,6.17,GR,1712844438
374,xichang,27.8964,102.2634,18.6,31,10,1.04,CN,1712844371
375,moroni,-11.7022,43.2551,29.26,77,100,0.98,KM,1712844439
376,darhan,49.4867,105.9228,7.73,80,45,1.72,MN,1712844439
377,kapuskasing,49.4169,-82.4331,7.0,70,75,3.09,CA,1712844242
378,balykchy,42.4557,76.1861,12.67,96,66,0.89,KG,1712844439
379,whangarei,-35.7317,174.3239,19.72,95,100,4.64,NZ,1712844415
380,mao,39.8885,4.2658,18.31,55,20,12.86,ES,1712844440
381,fortuna,40.5982,-124.1573,9.81,94,100,0.0,US,1712844440
382,tabou,4.423,-7.3528,30.6,66,88,3.8,CI,1712844440
383,raja,8.4596,25.678,38.66,8,82,3.03,SS,1712844440
384,qamdo,31.1667,97.2333,1.29,45,74,2.11,CN,1712844441
385,kanniyakumari,8.0833,77.5667,30.15,73,97,5.08,IN,1712844441
386,thinadhoo,0.5333,72.9333,29.11,75,24,1.51,MV,1712844441
387,akureyri,65.6835,-18.0878,1.35,100,100,2.16,IS,1712844441
388,kormilovka,55.0026,74.1028,-0.88,76,52,2.31,RU,1712844441
389,nar'yan-mar,67.6713,53.087,-1.61,96,100,12.07,RU,1712844427
390,diego de almagro,-26.3667,-70.05,21.93,36,10,1.33,CL,1712844442
391,chifeng,42.2683,118.9636,18.89,36,16,7.85,CN,1712844442
392,mashiko,36.4667,140.1,12.32,72,100,0.74,JP,1712844442
393,segou,13.4317,-6.2157,40.97,14,67,0.79,ML,1712844443
394,luwuk,-0.9516,122.7875,23.01,88,100,1.34,ID,1712844438
395,san patricio,28.017,-97.5169,19.92,43,0,4.87,US,1712844443
396,badger,64.8,-147.5333,-1.04,78,75,3.09,US,1712844443
397,sangmelima,2.9333,11.9833,27.02,72,100,0.92,CM,1712844287
398,maine soroa,13.2114,12.0241,39.76,5,100,7.84,NE,1712844443
399,khalabat,34.06,72.8894,24.42,34,14,0.98,PK,1712844443
400,carora,10.1755,-70.0827,29.06,49,3,5.22,VE,1712844444
401,tindouf,27.6711,-8.1474,34.75,7,0,4.92,DZ,1712844444
402,acapulco de juarez,16.8634,-99.8901,25.9,78,0,1.54,MX,1712844409
403,kudahuvadhoo,2.6708,72.8944,29.85,68,73,1.81,MV,1712844444
404,codajas,-3.8367,-62.0569,30.42,69,100,1.85,BR,1712844211
405,griffith,41.5284,-87.4237,10.96,87,100,6.17,US,1712844443
406,korla,41.7597,86.1469,20.43,20,71,2.82,CN,1712844445
407,sierra grande,-41.606,-65.3557,11.87,51,100,3.98,AR,1712844445
408,port augusta,-32.5,137.7667,15.29,71,0,3.94,AU,1712844445
409,happy valley-goose bay,53.3168,-60.3315,5.89,44,12,4.21,CA,1712844445
410,coruripe,-10.1256,-36.1756,30.37,64,79,4.18,BR,1712844445
411,arkhangel'sk,64.5401,40.5433,5.07,81,100,8.0,RU,1712844191
412,taco pozo,-25.6167,-63.2833,13.92,97,100,4.23,AR,1712844446
413,peterhead,57.5058,-1.7981,19.14,74,100,4.97,GB,1712844446
414,saint-francois,46.4154,3.9054,16.69,45,0,1.03,FR,1712844446
415,nowshahr,36.649,51.496,12.9,91,99,6.37,IR,1712844446
416,mandalgovi,45.7625,106.2708,7.56,55,100,5.73,MN,1712844447
417,wanning,18.8003,110.3967,24.76,90,54,0.89,CN,1712844447
418,tateyama,34.9833,139.8667,15.05,71,100,3.09,JP,1712844447
419,changzhi,35.2089,111.7386,17.68,59,10,1.29,CN,1712844447
420,gisborne,-38.6533,178.0042,18.01,80,100,5.21,NZ,1712844448
421,gering,41.8258,-103.6605,1.21,71,0,4.63,US,1712844448
422,melekeok village,7.4957,134.6367,27.31,83,40,2.06,PW,1712844448
423,tromso,69.6496,18.957,4.01,75,75,2.57,NO,1712844399
424,simdega,22.6167,84.5167,24.78,43,16,1.34,IN,1712844448
425,san luis,-33.295,-66.3356,9.35,91,100,2.56,AR,1712844449
426,pyhajarvi,67.0701,27.2176,3.57,88,55,7.79,FI,1712844449
427,shelburne,44.0787,-80.2041,7.35,97,100,5.49,CA,1712844449
428,konde,-4.95,39.75,30.16,72,56,2.49,TZ,1712844449
429,sola,-13.8833,167.55,27.87,79,100,3.35,VU,1712844449
430,laguna,38.421,-121.4238,14.54,90,0,0.0,US,1712844216
431,tadine,-21.55,167.8833,24.04,86,100,3.99,NC,1712844450
432,mukalla,14.5425,49.1242,28.4,61,2,2.33,YE,1712844346
433,las heras,-46.5419,-68.9359,10.51,35,0,1.75,AR,1712844450
434,caleta de carquin,-11.0925,-77.6267,22.53,80,91,3.03,PE,1712844450
435,vorkuta,67.5,64.0,-12.16,82,100,4.92,RU,1712844176
436,yeppoon,-23.1333,150.7333,17.88,74,0,3.6,AU,1712844451
437,kalifornsky,60.4183,-151.29,1.3,84,0,3.09,US,1712844451
438,south venice,27.0531,-82.4243,27.25,91,40,8.75,US,1712844451
439,saint-joseph,-21.3667,55.6167,28.21,84,88,1.69,RE,1712844451
440,tuy hoa,13.0833,109.3,24.53,96,21,0.21,VN,1712844451
441,bria,6.5423,21.9863,40.63,13,29,3.06,CF,1712844451
442,leiston,52.2061,1.5776,20.23,72,100,4.49,GB,1712844452
443,dakoro,14.5106,6.765,41.33,6,100,2.49,NE,1712844452
444,mount isa,-20.7333,139.5,14.87,51,0,2.57,AU,1712844452
445,natal,-5.795,-35.2094,31.36,84,75,4.12,BR,1712844288
446,visby,57.6409,18.296,9.12,87,75,11.83,SE,1712844452
447,novo mesto,45.804,15.1689,20.52,56,100,2.43,SI,1712844452
448,ubinskoye,55.3068,79.6802,-4.06,75,83,3.66,RU,1712844453
449,rockingham,42.9668,-71.0995,7.64,91,100,1.34,US,1712844453
450,choibalsan,48.0667,114.5,9.76,63,56,5.7,MN,1712844453
451,luderitz,-26.6481,15.1594,25.77,46,1,5.9,NA,1712844242
452,mascote,-15.5631,-39.3025,31.7,55,25,1.56,BR,1712844453
453,cromer,52.9312,1.2989,20.46,75,74,4.21,GB,1712844453
454,el nido,11.1858,119.3956,27.08,75,69,3.29,PH,1712844454
455,new plymouth,-39.0667,174.0833,19.34,93,100,10.45,NZ,1712844454
456,tazacorte,28.629,-17.9293,23.54,64,0,6.17,ES,1712844454
457,casper,42.8666,-106.3131,0.45,80,0,4.63,US,1712844180
458,belle fourche,44.6714,-103.8522,6.14,39,15,4.54,US,1712844192
459,nakhon nayok,14.1667,101.1,30.92,63,58,4.46,TH,1712844454
460,howrah,22.5892,88.3103,27.0,61,75,1.54,IN,1712844455
461,nantucket,41.2835,-70.0995,8.97,99,100,5.14,US,1712844455
462,khandyga,62.6667,135.6,-1.97,90,99,2.7,RU,1712844455
463,bom jesus,-9.0744,-44.3586,34.22,44,99,1.38,BR,1712844455
464,mhamid,29.82,-5.72,31.14,6,0,1.86,MA,1712844455
465,kimbe,-5.5502,150.1429,24.8,91,100,0.98,PG,1712844455
466,powell,40.1578,-83.0752,15.93,97,100,0.89,US,1712844350
467,ulsan,35.5372,129.3167,12.28,94,13,1.74,KR,1712844456
468,vilyuchinsk,52.9306,158.4028,-0.85,82,7,4.27,RU,1712844456
469,vadso,70.0744,29.7487,3.09,81,75,9.77,NO,1712844456
470,esmeraldas,-19.7625,-44.3139,27.63,65,59,2.22,BR,1712844456
471,clifton springs,-38.15,144.5667,14.51,82,100,2.57,AU,1712844456
472,torghay,49.6339,63.4981,9.46,48,9,5.96,KZ,1712844457
473,puerto armuelles,8.2833,-82.8667,28.99,71,97,1.34,PA,1712844457
474,la virginia,4.8997,-75.8825,25.75,83,20,1.54,CO,1712844457
475,gadzhiyevo,69.2551,33.3362,1.62,99,100,7.87,RU,1712844457
476,klyuchi,52.2667,79.1667,2.2,73,100,3.03,RU,1712844457
477,wangjing,24.6,94.0333,23.99,23,90,0.41,IN,1712844457
478,boke,10.9409,-14.2967,41.0,16,0,1.64,GN,1712844458
479,abqaiq,25.9371,49.6776,30.74,28,8,5.67,SA,1712844458
480,champerico,14.3,-91.9167,28.93,64,2,2.97,GT,1712844458
481,antsiranana,-12.2787,49.2917,28.0,84,12,2.87,MG,1712844458
482,ishigaki,24.3448,124.1572,24.32,85,14,5.95,JP,1712844458
483,figuig (centre),32.1089,-1.2286,25.56,12,0,4.97,MA,1712844458
484,timbuktu,16.7735,-3.0074,42.59,6,69,5.25,ML,1712844459
485,port lincoln,-34.7333,135.8667,14.15,72,0,3.67,AU,1712844440
486,samitah,16.596,42.9444,31.75,58,45,4.3,SA,1712844459
487,labrador city,52.9463,-66.9114,-0.54,83,100,3.41,CA,1712844459
488,el abiodh sidi cheikh,32.893,0.5484,21.33,16,3,8.69,DZ,1712844459
489,carahue,-38.7,-73.1667,13.55,41,5,2.15,CL,1712844459
490,kijang,35.2442,129.2139,12.93,92,54,3.21,KR,1712844459
491,portland,45.5234,-122.6762,7.57,91,75,2.06,US,1712844437
492,vila velha,-20.3297,-40.2925,29.97,78,75,2.06,BR,1712844245
493,anahuac,27.2333,-100.15,21.09,31,0,2.13,MX,1712844321
494,biltine,14.5333,20.9167,40.15,5,99,3.95,TD,1712844460
495,semikarakorsk,47.5194,40.8112,25.59,36,0,3.27,RU,1712844326
496,sortavala,61.7053,30.6918,9.45,60,12,7.15,RU,1712844331
497,manaure,11.7751,-72.4445,30.51,55,31,10.2,CO,1712844461
498,namie,37.4833,141.0,10.86,88,100,2.87,JP,1712844461
499,kedougou,12.5579,-12.1743,41.79,15,2,2.74,SN,1712844461
500,queenstown,-31.8976,26.8753,14.3,39,0,5.68,ZA,1712844287
501,aswan,24.0934,32.907,31.58,12,0,4.87,EG,1712844462
502,sao joao da barra,-21.6403,-41.0511,30.05,80,4,2.52,BR,1712844462
503,port blair,11.6667,92.75,30.02,79,20,1.54,IN,1712844462
504,hovd,48.0056,91.6419,8.82,38,16,1.81,MN,1712844462
505,nago,26.5881,127.9761,21.47,87,19,1.68,JP,1712844463
506,kolwezi,-10.7148,25.4667,21.63,77,100,1.81,CD,1712844463
507,kasulu,-4.5767,30.1025,21.34,89,92,1.53,TZ,1712844278
508,sokoni,-6.4333,39.55,29.34,75,14,4.94,TZ,1712844463
509,dinguiraye,11.3,-10.7167,38.92,21,23,2.34,GN,1712844463
510,syas'stroy,60.1367,32.5691,8.27,61,2,8.43,RU,1712844336
511,mayenne,48.3333,-0.6667,18.69,76,100,2.76,FR,1712844464
512,la foa,-21.7108,165.8276,23.81,82,100,2.4,NC,1712844464
513,coquimbo,-29.9533,-71.3436,13.85,100,100,2.57,CL,1712844280
514,linxia chengguanzhen,35.6003,103.2064,13.46,22,0,1.43,CN,1712844464
515,dessalines,19.2833,-72.5,30.23,43,5,0.9,HT,1712844464
516,paita,-5.0892,-81.1144,24.48,69,67,3.72,PE,1712844464
517,cardigan,52.0847,-4.6591,14.4,89,100,7.66,GB,1712844465
518,yinchuan,38.4681,106.2731,19.77,17,98,2.28,CN,1712844181
519,oranjemund,-28.55,16.4333,29.98,29,0,5.07,NA,1712844465
520,lerwick,60.1545,-1.1494,11.0,83,6,11.0,GB,1712844258
521,nahiyat al fuhud,30.9697,46.7228,29.48,19,1,7.04,IQ,1712844465
522,ust'-kulom,61.6864,53.6902,7.44,93,100,6.39,RU,1712844466
523,pariaman,-0.619,100.12,29.03,82,100,1.67,ID,1712844466
524,mbanza-ngungu,-5.25,14.8667,26.74,82,95,1.31,CD,1712844265
525,hasaki,35.7333,140.8333,14.22,67,100,4.0,JP,1712844466
526,chios,38.3678,26.1358,22.92,46,0,6.69,GR,1712844466
527,prince albert,53.2001,-105.7677,-1.03,93,40,4.63,CA,1712844343
528,arawa,-6.2132,155.5367,25.28,91,98,1.39,PG,1712844467
529,kharkhorin,47.1975,102.8238,7.28,41,26,3.35,MN,1712844467
530,sao vicente,-23.9631,-46.3919,29.1,59,96,0.45,BR,1712844467
531,maasin,10.1336,124.8447,25.61,83,100,3.32,PH,1712844467
532,sidney,-33.8679,151.2073,16.51,83,17,2.41,AU,1712844224
533,hobyo,5.3505,48.5268,30.16,63,95,4.74,SO,1712844378
534,cannonvale,-20.2833,148.7,24.66,76,4,5.12,AU,1712844468
535,makokou,0.5738,12.8642,29.07,68,98,1.26,GA,1712844468
536,bhandara,21.1667,79.65,31.31,38,10,3.11,IN,1712844468
537,sao jose da coroa grande,-8.8978,-35.1478,30.13,65,60,3.24,BR,1712844468
538,alta,69.9689,23.2717,2.59,81,75,12.96,NO,1712844469
539,san sebastian de la gomera,28.0916,-17.1133,37.2,13,1,6.69,ES,1712844469
540,mayya,61.7333,130.2811,1.62,88,100,3.08,RU,1712844469
541,jayapura,-2.5333,140.7,24.66,93,100,1.36,ID,1712844345
542,broken hill,-31.95,141.4333,14.14,53,0,3.07,AU,1712844469
543,wynyard,-41.0,145.7167,10.2,79,87,3.36,AU,1712844469
544,dul'durga,50.6761,113.5931,6.98,62,84,2.38,RU,1712844469
545,jiagedaqi,50.4167,124.1167,5.86,58,87,1.32,CN,1712844470
546,escalon,37.7974,-120.9966,14.28,93,0,0.0,US,1712844470
547,primorsk,46.7348,36.3443,19.87,50,0,5.24,UA,1712844470
548,nadi,-17.8,177.4167,25.0,88,40,0.0,FJ,1712844290
549,kenitra,34.261,-6.5802,31.42,32,50,6.73,MA,1712844470
550,brokopondo,4.75,-55.1667,28.89,68,81,4.43,SR,1712844470
551,el idrissia,34.4454,2.5275,14.66,29,2,10.21,DZ,1712844471
552,hassi messaoud,31.6804,6.0729,24.06,23,0,6.61,DZ,1712844471
553,namibe,-15.1961,12.1522,25.26,66,27,6.0,AO,1712844227
554,bafoulabe,13.8065,-10.8321,41.48,17,37,3.1,ML,1712844471
